datetime,latitude,longitude,altitude,eph_gps,epv_gps,vel_gps,satellites_visible,alt_elipsoid,h_acc_gps,v_acc_gps,vel_acc_gps,hdg_acc_gps,xacc_imu,yacc_imu,zacc_imu,xgyro_imu,ygyro_imu,zgyro_imu,xmag_imu,ymag_imu,zmag_imu,pressure_alt,temperature,camera_roll,camera_pitch,camera_yaw,rollspeed,pitchspeed,yawspeed,q1,q2,q3,q4,repr_offset_q,odo_x,odo_y,odo_z,odo_vx,odo_vy,odo_q,odo_velocity_covariance,odo_pose_covariance,odo_vz,odo_rollspeed,odo_pitchspeed,odo_yawspeed,groundspeed,throttle,climb,heading,year,month,day,hour,minute,air_quality,wind,wind_gusts,cloud_cover
2023-09-23 07:46:50,40.7439457,-74.0261001,18.451714285714285,125.48475486414566,186.37831718333706,11.722176682246003,12,-16214.112539777625,2600.0615908590107,4129.578601041861,701.6736226276654,16386500.54087261,0,0,-9.8,0,0,0,0,0,0,18.451714285714285,37,0,0,179,0.0031258178904534427,0.002816513895504792,0.004273628568405685,1,0,0,0,"[0.0, 0.0, 0.0, 0.0]",0.004169326862691559,0.00928768446347784,-0.29327968515846115,0,0,"[1, 0, 0, 0]",0,"[0.0001622468619033436, 0.00014690922415157022, 0.0002073410765305576, 0.00016338358503038787, 0.00016612914643095115, 0.0001680605212451479, 0.0001465534594854719, 0.00015344473628044013, 0.00020139267325699453, 0.00020394129625384287, 0.0001965046223476882, 7.277371852699596e-05, 0.0001684825896355883, 0.00019539562322683785, 0.00019756191686580638, 0.00019111153414975347, 0.00015030522103605946, 0.00019313902494549952, 0.00020239765195347032, 0.00019130791959784572, 0.00020554968246172886]",0,0,0,0,0,0,0,359,2023,9,23,7,46,poor,ENE 9 mph,14 mph,90 %
2023-09-23 07:46:51,40.7439457,-74.0261001,18.73742857142857,128.62667679522582,187.95725622208542,10.433122237666169,12,-16210.436760028459,2648.581495058083,4179.524400233238,705.399959703739,16386946.40025753,0,0,-9.8,0,0,0,0,0,0,18.73742857142857,37,0,0,179,0.003726591943111729,0.0023086319455977084,0.0024803483545252653,1,0,0,0,"[0.0, 0.0, 0.0, 0.0]",0.008443346561749221,0.01899581931284969,-0.5827375629941005,0,0,"[1, 0, 0, 0]",0,"[0.00018730594202228423, 0.00014526611096711133, 0.000181957765230088, 0.00014548704092234987, 0.00014253268155400858, 0.00016169051994258143, 0.00020695866118159546, 0.00018172665251832193, 0.00015476900320032758, 0.0001600460432535279, 0.00015998105586532234, 7.808812086951901e-05, 0.00016850596389058012, 0.00016706377651859466, 0.00015861221412438018, 0.0001795203412922118, 0.00018722696802905017, 0.00014255387080820147, 0.00016566009739431235, 0.00020980999858867273, 0.00017180019457002416]",0,0,0,0,0,0,0,359,2023,9,23,7,46,poor,ENE 9 mph,14 mph,90 %
2023-09-23 07:46:52,40.7439457,-74.0261001,19.023142857142854,120.98164806726813,187.3503943965495,10.495027597301611,12,-16200.070940926065,2771.1650703087926,4165.06802071013,706.8110973885639,16386512.872402525,0,0,-9.8,0,0,0,0,0,0,19.023142857142854,37,0,0,179,0.002523242001730201,0.004019131893066307,0.002597710764043315,1,0,0,0,"[0.0, 0.0, 0.0, 0.0]",0.01623041966827929,0.023927331192777953,-0.8738250355195015,0,0,"[1, 0, 0, 0]",0,"[0.00017604986790883888, 0.00014047745103893438, 0.00016920614121674767, 0.00018369588842623557, 0.00015570675284029697, 0.00016864419948584854, 0.00014683782578993955, 0.0001752977455376574, 0.00016948121242525127, 0.00014620539167154505, 0.00018724406076786766, 8.71978894628219e-05, 0.00015672734998165068, 0.00018740569448118846, 0.00018757512966989688, 0.00016233450888204008, 0.000183500354508368, 0.00020481543736074962, 0.00015033104383547192, 0.0002017190368730943, 0.00015407569620944092]",0,0,0,0,0,0,0,359,2023,9,23,7,46,poor,ENE 9 mph,14 mph,90 %
2023-09-23 07:46:53,40.7439457,-74.0261001,19.30885714285714,126.83473842472667,180.47921369431262,11.688207565120948,13,-16206.336670808629,2618.1088207914017,4016.95547652217,709.577843759517,16386822.986744488,0,0,-9.8,0,0,0,0,0,0,19.30885714285714,37,0,0,179,0.0034738083638264803,0.00268552083793755,0.004066464887884766,1,0,0,0,"[0.0, 0.0, 0.0, 0.0]",0.0242590696979577,0.03066290133258983,-1.1651691790816985,0,0,"[1, 0, 0, 0]",0,"[0.00015931566810303932, 0.0001611510018969039, 0.00019336129899929125, 0.0002092200529227604, 0.00019901730223525636, 0.00014955620803383158, 0.00018531454355697505, 0.00018674321039206722, 0.00018205335733084677, 0.0001845348504388696, 0.00018766987563357027, 7.901379579915103e-05, 0.0001401448287715674, 0.0001682765073551118, 0.00015477311138020687, 0.00017868150562774668, 0.00015724294203980078, 0.00018843844384501678, 0.0001644268678905868, 0.0001406489980274845, 0.00020066071271716788]",0,0,0,0,0,0,0,359,2023,9,23,7,46,poor,ENE 9 mph,14 mph,90 %
2023-09-23 07:46:54,40.7439457,-74.0261001,19.594571428571424,129.35418028452713,180.04535230415559,11.922125356054456,10,-16218.772246972678,2691.228151763761,4117.615966920454,709.248640407602,16386046.08656117,0,0,-9.8,0,0,0,0,0,0,19.594571428571424,37,0,0,179,0.0036196804556414435,0.0035230255609511245,0.0026288244551449904,1,0,0,0,"[0.0, 0.0, 0.0, 0.0]",0.02745784668766176,0.031823557395262866,-1.4576940033575556,0,0,"[1, 0, 0, 0]",0,"[0.00014367255888715345, 0.00019828240498554056, 0.00018328030491277663, 0.00020461914990854618, 0.00016203041321007802, 0.00019038472563880798, 0.00014927339199347333, 0.0002007820266405211, 0.00019121190704954948, 0.00020735159754457994, 0.0001475206303129496, 8.229671886910637e-05, 0.00014492246686248324, 0.0001826300682135671, 0.00016672366921369287, 0.00015284239665999146, 0.0001507811765456388, 0.0001907052928179198, 0.0002018555068709115, 0.0001781951268872756, 0.00020673715116313054]",0,0,0,0,0,0,0,359,2023,9,23,7,46,poor,ENE 9 mph,14 mph,90 %
2023-09-23 07:46:55,40.7439457,-74.0261001,19.88028571428571,124.17138912426361,182.00432278025184,11.794393367836554,11,-16212.838594401352,2631.2505658498167,4022.2862321590646,701.7419015590532,16386325.660906194,0,0,-9.8,0,0,0,0,0,0,19.88028571428571,37,0,0,179,0.0028452681855944085,0.004071969137646467,0.0033785386853117496,1,0,0,0,"[0.0, 0.0, 0.0, 0.0]",0.031184601223183145,0.03451622245473116,-1.7510417731460899,0,0,"[1, 0, 0, 0]",0,"[0.00014512925831588634, 0.0002057068197781051, 0.00020877195731581544, 0.00015166736449621267, 0.00019170111024456902, 0.00019838693243044855, 0.00018427266117922652, 0.00016768647543802855, 0.00015968142986847041, 0.00016404637958239473, 0.0001971203131706847, 8.337269183031844e-05, 0.0001531645479593086, 0.00016173639320389357, 0.0001563565512340577, 0.00014518876473973763, 0.00014533489693428276, 0.0001795886803184063, 0.0001950587828813045, 0.00018513840749475308, 0.00017833116915551883]",0,0,0,0,0,0,0,359,2023,9,23,7,46,poor,ENE 9 mph,14 mph,90 %
2023-09-23 07:46:56,40.7439457,-74.0261001,20.165999999999993,122.61745131180245,183.21606237290857,10.044744288312865,10,-16218.779744616466,2659.53105689439,4020.105211468012,711.2886461838942,16386719.067138525,0,0,-9.8,0,0,0,0,0,0,20.165999999999993,37,0,0,179,0.00340476761884245,0.002303179138859325,0.0038895377447850862,1,0,0,0,"[0.0, 0.0, 0.0, 0.0]",0.03508111830060866,0.039204195824089835,-2.038249512311366,0,0,"[1, 0, 0, 0]",0,"[0.00019256972614338058, 0.00018579354777163942, 0.0001623556486370583, 0.000202669967159759, 0.00015725138626665838, 0.0001531613499920011, 0.00020104285154879146, 0.00016446143898904972, 0.00019284192656805242, 0.0001744665964959358, 0.0001804653856204946, 8.247041213835112e-05, 0.00017184824319741072, 0.00016165016463811033, 0.00016967464008067043, 0.00018526200551372636, 0.00014787151625111707, 0.00019721507892390614, 0.0001531891589274662, 0.00018396511745973166, 0.00017796146115125452]",0,0,0,0,0,0,0,359,2023,9,23,7,46,poor,ENE 9 mph,14 mph,90 %
2023-09-23 07:46:57,40.7439457,-74.0261001,20.451714285714278,127.00511413895404,187.3137564186816,11.63657883287454,10,-16208.096285478088,2728.101473229675,4093.6432175291316,718.3712788480481,16386236.868816284,0,0,-9.8,0,0,0,0,0,0,20.451714285714278,37,0,0,179,0.0035127050302186697,0.004216966742045504,0.003343864512540206,1,0,0,0,"[0.0, 0.0, 0.0, 0.0]",0.03982164718364849,0.04333033962398721,-2.3288560018461606,0,0,"[1, 0, 0, 0]",0,"[0.00017270113490579258, 0.0001682024075692375, 0.00016340128676363286, 0.00017004593209384413, 0.0001891903450738185, 0.0001488332743787001, 0.00019630180330881396, 0.00015763209527599982, 0.00014485327958783443, 0.00015119297463454348, 0.00017462121584674152, 7.571244539092111e-05, 0.0002042782603195776, 0.00015780947007751375, 0.00015634212059589039, 0.00014296613921349285, 0.00014325861615658761, 0.00017713827854690226, 0.00019759396259310324, 0.00016082257900639554, 0.0001819515380448113]",0,0,0,0,0,0,0,359,2023,9,23,7,46,poor,ENE 9 mph,14 mph,90 %
2023-09-23 07:46:58,40.7439457,-74.0261001,20.737428571428563,128.51175741302532,187.71881775923814,11.144021310319495,10,-16210.835639889843,2793.381691560963,4081.7080300837315,719.6914334242804,16386133.079827214,0,0,-9.8,0,0,0,0,0,0,20.737428571428563,37,0,0,179,0.002363471617202053,0.003258856415055528,0.0028259812707795533,1,0,0,0,"[0.0, 0.0, 0.0, 0.0]",0.04905241078831615,0.05110064428845078,-2.62041878107006,0,0,"[1, 0, 0, 0]",0,"[0.00014509690527989187, 0.00020144708228454414, 0.0001842024310767401, 0.0001824114066364679, 0.00020495877945140033, 0.00016048153394549608, 0.00020408261415937444, 0.00016217771524101515, 0.00017286498749726444, 0.00014986290992080248, 0.00016253551903343944, 5.638593374610047e-05, 0.00019261516778380566, 0.0002029613744640567, 0.000188817153763766, 0.00020152651401755562, 0.00015846625007604048, 0.00018995813385048202, 0.00017717113036652915, 0.0001426818570309679, 0.0002019766204660871]",0,0,0,0,0,0,0,359,2023,9,23,7,46,poor,ENE 9 mph,14 mph,90 %
2023-09-23 07:46:59,40.7439457,-74.0261001,21.023142857142847,128.85458208638266,189.32595239540387,11.004718104920507,12,-16210.932386483046,2756.7730523213736,4039.333725893803,711.1963594811407,16386385.568754971,0,0,-9.8,0,0,0,0,0,0,21.023142857142847,37,0,0,179,0.0038341516302686637,0.003991766379404982,0.003991474323902454,1,0,0,0,"[0.0, 0.0, 0.0, 0.0]",0.054942782443185186,0.05892386248145359,-2.9078741901682843,0,0,"[1, 0, 0, 0]",0,"[0.0002050100980115945, 0.00014536903353256405, 0.0002084854777908853, 0.0001824528075727344, 0.00017938442851576886, 0.00017526396911185526, 0.000143911027892105, 0.00019825962285131778, 0.00015791476031006615, 0.0001706050034135049, 0.00014089505603321473, 8.988467364426774e-05, 0.00020303571993870176, 0.00015500204714265252, 0.0001677059176111009, 0.0001704163582756369, 0.00015878331446198424, 0.00017707891861965685, 0.00020938036727077863, 0.0001939801908529417, 0.00015392041074302565]",0,0,0,0,0,0,0,359,2023,9,23,7,46,poor,ENE 9 mph,14 mph,90 %
2023-09-23 07:47:00,40.7439457,-74.0261001,21.308857142857132,125.04927428699357,188.68067439940802,11.081379757292463,12,-16214.144817100867,2758.5529237888095,4175.438023555444,709.8024061684051,16386610.742125476,0,0,-9.8,0,0,0,0,0,0,21.308857142857132,37,0,0,179,0.004209378996354691,0.00331732004323959,0.0038847895200184047,1,0,0,0,"[0.0, 0.0, 0.0, 0.0]",0.05679306840597322,0.06021506229470257,-3.198657711285824,0,0,"[1, 0, 0, 0]",0,"[0.00015380213517377184, 0.00016118551270626522, 0.00014572713479823685, 0.0001442523043216273, 0.00018217937862851014, 0.00018989868638818658, 0.00017324290147578258, 0.0001676029447910236, 0.00020873531758062503, 0.00019244789574714112, 0.00018435768922075326, 5.80904127326221e-05, 0.00020820732899567876, 0.00015089819376903516, 0.00020552535734183865, 0.0002083292003203707, 0.00020786234411077233, 0.0001817369935072759, 0.00018910680822370135, 0.00019254438588805592, 0.00014890446367604282]",0,0,0,0,0,0,0,359,2023,9,23,7,47,poor,ENE 9 mph,14 mph,90 %
2023-09-23 07:47:01,40.7439457,-74.0261001,21.594571428571417,125.05568963818766,182.11933489170917,11.968990031121777,10,-16214.806934166092,2751.815879406456,4026.4374014684363,705.4692590885254,16386666.845427934,0,0,-9.8,0,0,0,0,0,0,21.594571428571417,37,0,0,179,0.003898694418934332,0.0042502369993132555,0.0035757152657493654,1,0,0,0,"[0.0, 0.0, 0.0, 0.0]",0.060517517397325964,0.0640872144925027,-3.492134985267437,0,0,"[1, 0, 0, 0]",0,"[0.0001797888094441008, 0.00018433039846844408, 0.00016036740702247057, 0.00016589497824169968, 0.00019903328069139254, 0.000208184218506096, 0.0001686890430646802, 0.00019860758012916186, 0.00019121087432237734, 0.0002088314755772645, 0.00020947364685728638, 8.538425179632189e-05, 0.0001869843169222571, 0.00015936432227429132, 0.0001872007370426327, 0.00015896142298736564, 0.00018211632426301267, 0.00019188029158812497, 0.00014526125069034236, 0.00015947019842711736, 0.00018366312323330703]",0,0,0,0,0,0,0,359,2023,9,23,7,47,poor,ENE 9 mph,14 mph,90 %
2023-09-23 07:47:02,40.7439457,-74.0261001,21.8802857142857,124.97046633462313,189.88326778649386,10.412077970689186,11,-16218.093092512772,2797.2631844008224,4023.845905124059,717.7284197593841,16386880.6645873,0,0,-9.8,0,0,0,0,0,0,21.8802857142857,37,0,0,179,0.0032905529990619386,0.004141063051374377,0.003334576775138143,1,0,0,0,"[0.0, 0.0, 0.0, 0.0]",0.06705011000767289,0.06875486259360214,-3.779460517176749,0,0,"[1, 0, 0, 0]",0,"[0.00019860003900059288, 0.00018617630914722955, 0.00018542962531855245, 0.00018193691031615847, 0.00019190677014328054, 0.000198867286098645, 0.0001734831629529893, 0.0002057874423916557, 0.00018317540332409617, 0.0001980418171675054, 0.00016395498865690912, 7.000797781910198e-05, 0.0001639059095205562, 0.0002065658969304071, 0.00017120070292811653, 0.00020907566281832814, 0.0001783583605902754, 0.0002034765911620618, 0.0001723538630593797, 0.00016508199683055465, 0.00015136718620017351]",0,0,0,0,0,0,0,359,2023,9,23,7,47,poor,ENE 9 mph,14 mph,90 %
2023-09-23 07:47:03,40.7439457,-74.0261001,22.165999999999986,124.98517426531225,181.2507049571397,10.539253909159015,13,-16205.508638191577,2661.7331780032705,4065.1774135152436,714.1143648738043,16386297.560058277,0,0,-9.8,0,0,0,0,0,0,22.165999999999986,37,0,0,179,0.0035682863054449774,0.0031503668932474837,0.002398567299010367,1,0,0,0,"[0.0, 0.0, 0.0, 0.0]",0.0765060959341254,0.07586627386811753,-4.0687201315747705,0,0,"[1, 0, 0, 0]",0,"[0.0001886775193200923, 0.00019196214914615019, 0.00014159079667252296, 0.0001892718519312259, 0.00014474728141819187, 0.00019560414438155602, 0.0001839016047964887, 0.0001558277577499684, 0.00016257000097452218, 0.00014867207460329712, 0.0001796385322812406, 6.91939321104801e-05, 0.00016570156515699697, 0.00015224839345568788, 0.00018963452885058905, 0.00014931255093059476, 0.00014139313738107095, 0.00015946562599311137, 0.00020406099622516968, 0.00014542107924872682, 0.00017925425508926113]",0,0,0,0,0,0,0,359,2023,9,23,7,47,poor,ENE 9 mph,14 mph,90 %
2023-09-23 07:47:04,40.74394912640114,-74.0261001,22.165999999999986,124.0030039681032,180.80670713086405,10.448919613458381,13,-16204.47973678729,2662.3621760934147,4127.872876618741,719.4809763888541,16386138.712253282,0,0,-9.8,0,0,0,0,0,0,22.165999999999986,37,0,0,179,0.00259546129729562,0.0036890124454887706,0.004207298117741723,1,0,0,0,"[0.0, 0.0, 0.0, 0.0]",0.4590780564329014,0.08583196508179086,-4.072656160806286,0,0,"[1, 0, 0, 0]",0,"[0.0002086478713019972, 0.0001898212485317209, 0.00016381493715562966, 0.00017944484171271828, 0.00020782565424892128, 0.00018682472433258204, 0.00014971462969286907, 0.0001681761443389792, 0.00018345401850461345, 0.00016234516299487058, 0.00019659326129810198, 8.75552911322125e-05, 0.00018094420821005986, 0.00017096800082380142, 0.00014685019672482203, 0.0002097410106612272, 0.000148215017887492, 0.00015296929670228493, 0.00019286474013467658, 0.00019940519810220502, 0.0002082759562037418]",0,0,0,0,0,0,0,359,2023,9,23,7,47,poor,ENE 9 mph,14 mph,90 %
2023-09-23 07:47:05,40.743952552802284,-74.0261001,22.165999999999986,125.52753109518503,185.8987745882959,11.271112785738094,13,-16214.135770619409,2785.234117143862,4050.9222830486087,714.9538091886955,16386987.192162503,0,0,-9.8,0,0,0,0,0,0,22.165999999999986,37,0,0,179,0.0030493593312147732,0.0035794988087721317,0.0038301951406267795,1,0,0,0,"[0.0, 0.0, 0.0, 0.0]",0.8415715591324407,0.09519930821533096,-4.077899815815358,0,0,"[1, 0, 0, 0]",0,"[0.00015225902896446588, 0.0001956829476095377, 0.0001714149018933093, 0.0001737173121651075, 0.00014058147054012187, 0.00016566011910108493, 0.00015956727183126534, 0.0001905005143533664, 0.00018674957753749626, 0.00016731962803760245, 0.00020373221601101084, 8.123674723204105e-05, 0.0001921609568291909, 0.0001673464134258551, 0.00018293584913775123, 0.00016240777421730172, 0.00015255288943822557, 0.0001490135144217957, 0.00018916714464163657, 0.00014077885195955056, 0.00016707919634098513]",0,0,0,0,0,0,0,359,2023,9,23,7,47,poor,ENE 9 mph,14 mph,90 %
2023-09-23 07:47:06,40.74395597920343,-74.0261001,22.165999999999986,125.76514053247934,187.71720903916562,10.433810801168672,12,-16205.091661257378,2755.1204323068177,4106.945674977692,701.4414086336797,16386621.456666227,0,0,-9.8,0,0,0,0,0,0,22.165999999999986,37,0,0,179,0.002913069905511204,0.003621486624804771,0.003282261989413281,1,0,0,0,"[0.0, 0.0, 0.0, 0.0]",1.2287656382740677,0.09937628169077098,-4.087556943670953,0,0,"[1, 0, 0, 0]",0,"[0.00015322969654490049, 0.00017374391884395735, 0.00017762576806052842, 0.00017422586711605574, 0.00018806030193392078, 0.00014252414011709473, 0.0001417181688351258, 0.00016251945913718142, 0.00017674563186451488, 0.00016426765392007852, 0.0002029102469245727, 4.435498814709488e-05, 0.0001951010413996368, 0.00016798136519093938, 0.0002055304171091274, 0.0001872069689626454, 0.00020820866316545786, 0.0001571300447352877, 0.00014245301996662708, 0.00018233622069175056, 0.0001512467916655465]",0,0,0,0,0,0,0,359,2023,9,23,7,47,poor,ENE 9 mph,14 mph,90 %
2023-09-23 07:47:07,40.74395940560457,-74.0261001,22.165999999999986,120.8571914682222,180.22088534640287,10.006728662589607,12,-16213.495945247916,2617.7368767795633,4031.2284482641226,715.8539517803703,16386498.678793112,0,0,-9.8,0,0,0,0,0,0,22.165999999999986,37,0,0,179,0.0035374625328288413,0.003354455559041401,0.0025095353070686,1,0,0,0,"[0.0, 0.0, 0.0, 0.0]",1.6117083341463934,0.10138196892289937,-4.092187577154229,0,0,"[1, 0, 0, 0]",0,"[0.0002087555695891819, 0.00017097982994586204, 0.000159176682189863, 0.00017250690305798953, 0.00020417095796962864, 0.000208153552823116, 0.0002097210270582475, 0.00015802102250354996, 0.00020776659742021377, 0.000152489239857034, 0.0001875390807628813, 7.309250983105592e-05, 0.00014980142197316507, 0.00015776935072939603, 0.00017645675857670286, 0.000195656329485443, 0.00015242330667996848, 0.00017419177368205226, 0.00020768623953886206, 0.00018233038657540623, 0.00014773331004898412]",0,0,0,0,0,0,0,359,2023,9,23,7,47,poor,ENE 9 mph,14 mph,90 %
2023-09-23 07:47:08,40.743962832005714,-74.0261001,22.165999999999986,129.93162610838945,186.86064561826257,11.496044381952261,10,-16209.531939925266,2615.137339648199,4052.208589735848,717.0591869332793,16386422.659553118,0,0,-9.8,0,0,0,0,0,0,22.165999999999986,37,0,0,179,0.0041170694078470965,0.002744126339562546,0.0026928305972029384,1,0,0,0,"[0.0, 0.0, 0.0, 0.0]",1.9952510789773537,0.10902113450299614,-4.100336502015841,0,0,"[1, 0, 0, 0]",0,"[0.00017584824293609676, 0.00020198458686723547, 0.0001807717712375023, 0.00016240506675553376, 0.0002070765051511079, 0.00015668782198097198, 0.00017321886811948073, 0.00019781404929009594, 0.00014446762968912984, 0.00015249657532622363, 0.0001916360251806406, 8.870911614608668e-05, 0.00020797445331784695, 0.00015396878129296426, 0.00019549108469559472, 0.00019494147041817156, 0.00017406660044206598, 0.00019741294514792612, 0.00020567127934728515, 0.00020619070335285347, 0.00016647525791693306]",0,0,0,0,0,0,0,359,2023,9,23,7,47,poor,ENE 9 mph,14 mph,90 %
2023-09-23 07:47:09,40.74396625840686,-74.0261001,22.165999999999986,127.24713329436258,186.67287596183246,10.614818911330682,13,-16218.530401191147,2693.7788450434164,4194.558284488401,703.6399042031313,16386846.649911823,0,0,-9.8,0,0,0,0,0,0,22.165999999999986,37,0,0,179,0.0033039661191364197,0.002956483422728413,0.0028382216647665774,1,0,0,0,"[0.0, 0.0, 0.0, 0.0]",2.3785040079825333,0.11579968268930745,-4.109612393891049,0,0,"[1, 0, 0, 0]",0,"[0.00018575654013744213, 0.0001751479314779752, 0.00015343167832988682, 0.00018136120902312975, 0.0001644439791986777, 0.00017066864047677574, 0.00020718639522638842, 0.00019783781077106115, 0.0001793390982752739, 0.00020430115992522882, 0.00019573030964346167, 6.409924261484797e-05, 0.00014208159244512815, 0.0001975885615000006, 0.0001505785863987266, 0.00014187697364272022, 0.00014908656556579582, 0.00018898158923745355, 0.00020072140015395577, 0.00016892050097183672, 0.00016209892564454791]",0,0,0,0,0,0,0,359,2023,9,23,7,47,poor,ENE 9 mph,14 mph,90 %
2023-09-23 07:47:10,40.743969684808,-74.0261001,22.165999999999986,129.50079600450036,186.45772126143393,10.037158392088806,13,-16219.836868060145,2799.9572624993734,4178.798335077317,700.5970125122175,16386518.317843074,0,0,-9.8,0,0,0,0,0,0,22.165999999999986,37,0,0,179,0.0024582833202931144,0.004198886571047749,0.0032992493750038186,1,0,0,0,"[0.0, 0.0, 0.0, 0.0]",2.7668801255275373,0.12548716384064645,-4.116747739736948,0,0,"[1, 0, 0, 0]",0,"[0.00018387282381443368, 0.00014895494824563647, 0.0001628245423306688, 0.0001637740710133594, 0.0001482634894806838, 0.00018895002198355464, 0.00015006988010491244, 0.00016992769243722244, 0.0001690877983601416, 0.0001680699030360007, 0.00020221832620219012, 5.1553733384948486e-05, 0.00017093049929015853, 0.0001407767031311521, 0.00017214187593751594, 0.00016291347327243306, 0.00016781860033998025, 0.00018088542569845304, 0.00018577383720111136, 0.00016079146945904697, 0.00015303899700139782]",0,0,0,0,0,0,0,359,2023,9,23,7,47,poor,ENE 9 mph,14 mph,90 %
2023-09-23 07:47:11,40.743973111209144,-74.0261001,22.165999999999986,128.7930698606027,185.47679675114676,11.95885366735702,11,-16207.071111757814,2718.7158997616734,4116.922690540877,714.3521161912894,16386472.492162412,0,0,-9.8,0,0,0,0,0,0,22.165999999999986,37,0,0,179,0.0037797359349104427,0.0036996860958286243,0.0030664843449048494,1,0,0,0,"[0.0, 0.0, 0.0, 0.0]",3.157543711386258,0.12982773040920573,-4.1252611602687965,0,0,"[1, 0, 0, 0]",0,"[0.0001702786864646115, 0.00017428670609483397, 0.00016924351550186365, 0.00019607669740131974, 0.00018273126051586167, 0.00020904206892816222, 0.0001808433811484469, 0.00014555708976353036, 0.00014193998459691357, 0.00019480469315488725, 0.0001915458450111166, 6.768425116013307e-05, 0.0001634316236646294, 0.00019409265793409377, 0.00016548561849941213, 0.0001950144120855415, 0.00015226489245077324, 0.00019074440466323412, 0.00018802014244034425, 0.00015583714987229926, 0.00017711544545690773]",0,0,0,0,0,0,0,359,2023,9,23,7,47,poor,ENE 9 mph,14 mph,90 %
2023-09-23 07:47:12,40.74397653761029,-74.0261001,22.165999999999986,123.35303864880642,188.46863346669375,10.280015820009034,10,-16208.400236104071,2614.245141573928,4005.0107870620636,713.6790433975614,16386601.534153646,0,0,-9.8,0,0,0,0,0,0,22.165999999999986,37,0,0,179,0.0024057961318770587,0.0023670239304561347,0.002916137013044571,1,0,0,0,"[0.0, 0.0, 0.0, 0.0]",3.5424177029964925,0.13475304355095594,-4.13020206741981,0,0,"[1, 0, 0, 0]",0,"[0.00018814396506982323, 0.00018460919279809188, 0.00017750263630632781, 0.00016797904766120632, 0.0001806320761617862, 0.00014725802794652277, 0.0001641457932892404, 0.00017072248158555818, 0.00020581141136008488, 0.0001950129682887165, 0.0002017899170413831, 6.0080877860420825e-05, 0.00015526982895606683, 0.00020009241617886727, 0.00018663763462509146, 0.00018371045253358403, 0.00014143241472685644, 0.0001552633390473684, 0.00020241157325127574, 0.00019925005083344725, 0.00019189118390949058]",0,0,0,0,0,0,0,359,2023,9,23,7,47,poor,ENE 9 mph,14 mph,90 %
2023-09-23 07:47:13,40.74397996401143,-74.0261001,22.165999999999986,128.68614366985557,180.7184981805988,11.340046482745887,12,-16202.072187776072,2652.2560537019394,4035.3783432629043,714.8589776261649,16386574.655342009,0,0,-9.8,0,0,0,0,0,0,22.165999999999986,37,0,0,179,0.0033498221251111494,0.002435212665250798,0.0031161036138407563,1,0,0,0,"[0.0, 0.0, 0.0, 0.0]",3.9275208744846966,0.1420400661398646,-4.137418387414455,0,0,"[1, 0, 0, 0]",0,"[0.0001999265141998472, 0.00020688586863196597, 0.00019523241105381798, 0.0001963246640494467, 0.0001629187151565172, 0.00017870545696093389, 0.000165240319469496, 0.0001430212774236194, 0.0002033188544567601, 0.0001672382106813383, 0.00020061183753174852, 7.992015407195786e-05, 0.0001733865580254866, 0.00019198623198086952, 0.00018095051925698738, 0.0001427850638516196, 0.00020965279262913524, 0.000183213156827644, 0.00020934768560070872, 0.00017427093519939234, 0.00020067898758333424]",0,0,0,0,0,0,0,359,2023,9,23,7,47,poor,ENE 9 mph,14 mph,90 %
2023-09-23 07:47:14,40.74398339041257,-74.0261001,22.165999999999986,125.48002803154489,188.16862229265868,11.770204284787042,13,-16204.751007977538,2720.1126279623995,4128.248445746862,707.4692747441995,16386863.875852242,0,0,-9.8,0,0,0,0,0,0,22.165999999999986,37,0,0,179,0.0030678493728588394,0.004170939595883991,0.003216453106365938,1,0,0,0,"[0.0, 0.0, 0.0, 0.0]",4.310626068701216,0.1466871478729129,-4.1454516392922836,0,0,"[1, 0, 0, 0]",0,"[0.00014483321522000062, 0.00018172731338642954, 0.00020074508329727145, 0.00018298732802570004, 0.0001436042818830706, 0.00018913923565524551, 0.00015592825069041437, 0.00015804008095670187, 0.0001611143133470991, 0.0001527889707401672, 0.0001989319938405454, 6.298541756444704e-05, 0.00014857880297976554, 0.00015071656566964604, 0.00015883819435022568, 0.00014520300933077248, 0.00018700386289794378, 0.0001552794180168805, 0.00020773300760021908, 0.00020782944227714604, 0.0001654477160063784]",0,0,0,0,0,0,0,359,2023,9,23,7,47,poor,ENE 9 mph,14 mph,90 %
2023-09-23 07:47:15,40.74398681681372,-74.0261001,22.165999999999986,126.71176554314155,180.56014829366396,10.996357508280022,11,-16216.141015647487,2789.3169692404927,4145.5605458978525,705.4249910759379,16386197.178860495,0,0,-9.8,0,0,0,0,0,0,22.165999999999986,37,0,0,179,0.002624325511590242,0.002554521902947644,0.0025625959400235768,1,0,0,0,"[0.0, 0.0, 0.0, 0.0]",4.694846632916608,0.1488597060824989,-4.148000284223339,0,0,"[1, 0, 0, 0]",0,"[0.0001743154398425932, 0.0001402288153818008, 0.00015273002517943296, 0.00018870263777958623, 0.00020620561198626892, 0.00017375127138440717, 0.00018874409632817576, 0.00018496514821135848, 0.00020360942177220548, 0.00017135580369069683, 0.00020928074358657963, 6.062040600756938e-05, 0.0001451776514061209, 0.00014122097530283833, 0.00015488996649385748, 0.00014689047149364884, 0.0001858317676311654, 0.0001707255043657195, 0.00015165664411410836, 0.00018711688287062776, 0.00018603284734088781]",0,0,0,0,0,0,0,359,2023,9,23,7,47,poor,ENE 9 mph,14 mph,90 %
2023-09-23 07:47:16,40.74399024321486,-74.0261001,22.165999999999986,120.1078285582988,180.04663206397396,10.324828762714548,10,-16205.632242461508,2654.239070490113,4063.294222427225,713.2915270318462,16386141.88425339,0,0,-9.8,0,0,0,0,0,0,22.165999999999986,37,0,0,179,0.004188376692514335,0.0038229161615284165,0.004183828996313452,1,0,0,0,"[0.0, 0.0, 0.0, 0.0]",5.081649811304802,0.1506696134682758,-4.149928924610118,0,0,"[1, 0, 0, 0]",0,"[0.0001522112133210422, 0.00015515023434788393, 0.00017357813951795797, 0.00018307351112663439, 0.00016889676984805434, 0.00014125316776641384, 0.0001432193398118586, 0.00018277916268576576, 0.00014767768906368545, 0.00020161639925382174, 0.00015573513088446085, 7.296705358222222e-05, 0.000168568670047447, 0.0001805136711906907, 0.00015583174944109124, 0.0001496694628874209, 0.0001439402073549873, 0.00019561716952156875, 0.00018745306397055923, 0.00014860109100686786, 0.00017308854024205577]",0,0,0,0,0,0,0,359,2023,9,23,7,47,poor,ENE 9 mph,14 mph,90 %
2023-09-23 07:47:17,40.743993669616,-74.0261001,22.165999999999986,129.27408007331306,187.88110797133476,11.987273577079415,13,-16212.41969966073,2785.7571816341556,4087.5720303673934,717.8560494932017,16386607.961655978,0,0,-9.8,0,0,0,0,0,0,22.165999999999986,37,0,0,179,0.00280784843108419,0.0031084749044594674,0.003104883254857651,1,0,0,0,"[0.0, 0.0, 0.0, 0.0]",5.466124825303515,0.15968884778979292,-4.155872572160688,0,0,"[1, 0, 0, 0]",0,"[0.00018021641209605365, 0.00020997142558908815, 0.0001516714011918705, 0.00020120690996709465, 0.00016624257232000713, 0.00017029727912081354, 0.00019885684666633063, 0.00017335430053343418, 0.00015592074803309083, 0.00018156771832835022, 0.00019354052046951806, 7.918402390850158e-05, 0.0001640750797494259, 0.00016425783767185076, 0.0001567862330598453, 0.00014875787626927737, 0.00018296810963830772, 0.00016571212619758937, 0.00020300941572616222, 0.00020810514691781536, 0.00015227710658814283]",0,0,0,0,0,0,0,359,2023,9,23,7,47,poor,ENE 9 mph,14 mph,90 %
2023-09-23 07:47:18,40.74399709601715,-74.0261001,22.165999999999986,124.46831092831056,184.48117147658797,10.655265645559737,13,-16203.280764445888,2643.416312080832,4072.4799200887005,715.4468996585414,16386429.504580807,0,0,-9.8,0,0,0,0,0,0,22.165999999999986,37,0,0,179,0.002757177247023873,0.003990511633143691,0.0032352384167568977,1,0,0,0,"[0.0, 0.0, 0.0, 0.0]",5.8548475850630375,0.16944811884806013,-4.160552230233177,0,0,"[1, 0, 0, 0]",0,"[0.00014986657555153687, 0.00014303415494717914, 0.00019750033995545086, 0.0001970131319709774, 0.00020533194709588588, 0.00017288937954431911, 0.00019823418569636, 0.00016757785644322352, 0.00016823269295146068, 0.00018073173156967447, 0.00018364935816874933, 4.1657172425296505e-05, 0.0001479133073898267, 0.00017631075711133922, 0.0001695013357360739, 0.0002097051366465254, 0.0001516626257361468, 0.00017450409524854307, 0.0001583541217521247, 0.00015102025123104798, 0.00015637593944973835]",0,0,0,0,0,0,0,359,2023,9,23,7,47,poor,ENE 9 mph,14 mph,90 %
2023-09-23 07:47:19,40.74400052241829,-74.0261001,22.165999999999986,129.16054189454832,188.3439635751984,10.332638793123538,10,-16219.785732449516,2622.57882196486,4004.605492606755,709.488761948785,16386093.23253316,0,0,-9.8,0,0,0,0,0,0,22.165999999999986,37,0,0,179,0.002408053690726418,0.0031090775280748816,0.003615983597366989,1,0,0,0,"[0.0, 0.0, 0.0, 0.0]",6.240558405231573,0.17281289649683443,-4.161896557217707,0,0,"[1, 0, 0, 0]",0,"[0.00014804304431995766, 0.00015428830192884123, 0.0001982255427782574, 0.00014982864109964268, 0.00016157950272162, 0.0001437009265601213, 0.00017414127074798748, 0.0001881977240839802, 0.00018515963244137727, 0.00019324406178143904, 0.000141484011668077, 5.0995336195822045e-05, 0.00018516969866143448, 0.00020732490021986626, 0.00017911360104840877, 0.00017091623608867044, 0.00016429170682031251, 0.00016512481996101863, 0.00015426585331170168, 0.00016848680958342257, 0.00016732843331319222]",0,0,0,0,0,0,0,359,2023,9,23,7,47,poor,ENE 9 mph,14 mph,90 %
2023-09-23 07:47:20,40.74400394881943,-74.0261001,22.165999999999986,122.89375358460377,180.80925070731527,10.342420093607911,11,-16209.67566860385,2714.5033494342333,4099.903768031779,711.617031744905,16386673.477520265,0,0,-9.8,0,0,0,0,0,0,22.165999999999986,37,0,0,179,0.0029886704500954285,0.003408788927209307,0.0026926349740720506,1,0,0,0,"[0.0, 0.0, 0.0, 0.0]",6.626489633944026,0.17974238954366908,-4.169123955631511,0,0,"[1, 0, 0, 0]",0,"[0.00016675772752788073, 0.00014137924591979016, 0.00020601996023335178, 0.00019543779950282236, 0.0002071584118797945, 0.00020860546918611948, 0.00014542433476912335, 0.00017514652350492267, 0.00016247866783523256, 0.00015457895375386115, 0.00018486847210097824, 6.720718626840979e-05, 0.00018000430246783674, 0.00016337038900706067, 0.00016701362482880657, 0.00015791834565639405, 0.00017450533203147177, 0.00020116394818508587, 0.00015422557698254624, 0.00017935876980596898, 0.0001667408245707881]",0,0,0,0,0,0,0,359,2023,9,23,7,47,poor,ENE 9 mph,14 mph,90 %
2023-09-23 07:47:21,40.744007375220576,-74.0261001,22.165999999999986,124.14671493345264,187.42678353662467,11.932589406859522,11,-16211.883575899392,2655.8431525823066,4035.2400147140156,701.4409767601586,16386703.007047174,0,0,-9.8,0,0,0,0,0,0,22.165999999999986,37,0,0,179,0.0037179634722649445,0.0025649866655042797,0.003654758163248261,1,0,0,0,"[0.0, 0.0, 0.0, 0.0]",7.010952913124531,0.18091380564902776,-4.172785090491684,0,0,"[1, 0, 0, 0]",0,"[0.00015919485102579647, 0.0001935218070625316, 0.00017930989204879928, 0.00020612107483857422, 0.0001514110306038094, 0.0001530635965050378, 0.00016932974930210047, 0.00020976291128737816, 0.00014424911534816843, 0.00018598374111623438, 0.00020265883086477188, 4.880890745500805e-05, 0.0001503011868987061, 0.0001858842277908471, 0.00014372044777087942, 0.00017391961091782726, 0.00015514510190999873, 0.0001673373272014911, 0.00018690707019106557, 0.00017895523678296163, 0.00018500076466734425]",0,0,0,0,0,0,0,359,2023,9,23,7,47,poor,ENE 9 mph,14 mph,90 %
2023-09-23 07:47:22,40.74401080162172,-74.0261001,22.165999999999986,123.61434524645868,182.70927193554766,11.098127155357762,11,-16216.088285194322,2602.2753401775644,4038.259900620674,713.043744399902,16386344.2673034,0,0,-9.8,0,0,0,0,0,0,22.165999999999986,37,0,0,179,0.0033581873966337054,0.0032819805051066565,0.0028125117316821755,1,0,0,0,"[0.0, 0.0, 0.0, 0.0]",7.393484644715609,0.19064113847431086,-4.17495203444071,0,0,"[1, 0, 0, 0]",0,"[0.0001787811829749238, 0.0001729455388188673, 0.00020041709298239667, 0.00015047993282001315, 0.00020301202780307378, 0.00020945229691918677, 0.00014593274585946115, 0.00017736446706352163, 0.0001889534778096032, 0.00014301886277959675, 0.00017179802911788613, 8.314121049522681e-05, 0.00016859429927038863, 0.00020135756101178107, 0.0001873692391979916, 0.00017811384924394397, 0.00020676639881752332, 0.00019559901696761587, 0.00015134929718934773, 0.0001546953338773871, 0.0001633718566260591]",0,0,0,0,0,0,0,359,2023,9,23,7,47,poor,ENE 9 mph,14 mph,90 %
2023-09-23 07:47:23,40.74401422802286,-74.0261001,22.165999999999986,121.1085196636616,187.062314868148,11.525191939085618,11,-16208.615760377194,2628.088499931032,4154.053231376781,716.8734462888524,16386764.224790813,0,0,-9.8,0,0,0,0,0,0,22.165999999999986,37,0,0,179,0.002559173433349331,0.003872672382690236,0.0033526843831626386,1,0,0,0,"[0.0, 0.0, 0.0, 0.0]",7.7775369726108075,0.19389048644351428,-4.184785053607945,0,0,"[1, 0, 0, 0]",0,"[0.0002043563391398952, 0.00016624206128104587, 0.0001403472810325412, 0.00014648455261821584, 0.00014048723607319952, 0.00016787106430297307, 0.00016358575548658917, 0.00018718710998218363, 0.0001766624427789818, 0.00016751837720827386, 0.00016094923121254016, 6.437645342812596e-05, 0.00015939756555831207, 0.0001435271511239756, 0.00017399159921564026, 0.00014638033000843867, 0.00018759217745997466, 0.0002081563004654766, 0.00016398887543251937, 0.00016570922300876165, 0.0001882090821056358]",0,0,0,0,0,0,0,359,2023,9,23,7,47,poor,ENE 9 mph,14 mph,90 %
2023-09-23 07:47:24,40.744017654424006,-74.0261001,22.165999999999986,127.6445531542845,185.55757184240434,11.73489971363538,13,-16203.697999387106,2621.573608474354,4101.9369892803425,701.9793687073305,16386421.665630875,0,0,-9.8,0,0,0,0,0,0,22.165999999999986,37,0,0,179,0.003564700932687713,0.0029163196789282167,0.004239961158191156,1,0,0,0,"[0.0, 0.0, 0.0, 0.0]",8.163703838378053,0.2033451525974721,-4.192412128423952,0,0,"[1, 0, 0, 0]",0,"[0.00015334221432311389, 0.00018599536896687617, 0.00017138230299865826, 0.0001953792390206205, 0.00019377757469777866, 0.0001913218890950352, 0.0001834042194974196, 0.0001441661818359698, 0.0001440786133311704, 0.00019735230640275598, 0.0001772208202529544, 8.771572668556869e-05, 0.00019056885520291473, 0.00017071672904116856, 0.00015258805580759108, 0.0001873072983724122, 0.00016222512766195346, 0.00020129561386123955, 0.0001536434125446086, 0.00015683936669394648, 0.00020887019123925886]",0,0,0,0,0,0,0,359,2023,9,23,7,47,poor,ENE 9 mph,14 mph,90 %
2023-09-23 07:47:25,40.74402108082515,-74.0261001,22.165999999999986,121.86912273064338,187.81496836094584,10.854036198356487,12,-16201.44767596024,2699.8495229315236,4144.802789020031,715.1292064647578,16386760.051864669,0,0,-9.8,0,0,0,0,0,0,22.165999999999986,37,0,0,179,0.004032432229098593,0.002634940293835505,0.0041010659043886205,1,0,0,0,"[0.0, 0.0, 0.0, 0.0]",8.547051615246394,0.2045427217456856,-4.200155025819775,0,0,"[1, 0, 0, 0]",0,"[0.00020252746122438419, 0.0001588412247825104, 0.00020978185075948345, 0.00014979240374993772, 0.0001719610658836271, 0.00019809136028782435, 0.00014596109716622215, 0.0001569659793348925, 0.00014618228063785566, 0.00018351693987216986, 0.00017244642577074888, 6.247415849187094e-05, 0.00018047054798403717, 0.00019847913778109767, 0.00017923163355509122, 0.0001917111633825923, 0.00017671995521679614, 0.0001444010430468392, 0.0001789762568086329, 0.0001425754456027524, 0.0001999910970105979]",0,0,0,0,0,0,0,359,2023,9,23,7,47,poor,ENE 9 mph,14 mph,90 %
